{"name":"Innovative Crane and Rigging Inc","contact_name":"Michael Ghost","contact_email":"ims1443@gmail.com","contact_phone":"909-786-7264","address":"1443 S Cucamonga Ave","city":"Ontario","state":"CA","zipcode":"91761","lat":"34.046890","lng":"-117.632904","notes":null,"tenant_id":9,"training_site_id":1,"status":1,"corporate_client_id":null,"location":"invalid corporate_client_id as corporate client not saved id=25 classbdb_cprher3829"}{"name":"Halecrest Swim and Tennis","contact_name":"Sharon Comer","contact_email":"halecrestpark@ca.rr.com","contact_phone":"714-557-7234","address":"Halecrest park Inc.","city":"Costa Mesa","state":"CA","zipcode":"92626","lat":"33.684307","lng":"-117.914162","notes":null,"tenant_id":9,"training_site_id":1,"status":1,"corporate_client_id":null,"location":"invalid corporate_client_id as corporate client not saved id=27 classbdb_cprher3829"}{"name":"Professional Security Consutlants","contact_name":"Travis Patterson","contact_email":"Tpatterson@pscsite.com","contact_phone":"562-544-3154","address":"1725 Pacific Ave","city":"Long Beach","state":"CA","zipcode":"90813","lat":"33.788471","lng":"-118.194138","notes":null,"tenant_id":9,"training_site_id":1,"status":1,"corporate_client_id":null,"location":"invalid corporate_client_id as corporate client not saved id=44 classbdb_cprher3829"}{"name":"CAPA LOC","contact_name":"Kimberly Dickerson","contact_email":"kim4capa@gmail.com","contact_phone":"714-427-0321","address":"2318 S Fairview St","city":"Santa Ana","state":"CA","zipcode":"92704","lat":"33.715927","lng":"-117.908020","notes":null,"tenant_id":9,"training_site_id":1,"status":1,"corporate_client_id":null,"location":"invalid corporate_client_id as corporate client not saved id=55 classbdb_cprher3829"}{"name":"Camp Med(LOC)","contact_name":"Jeannie Nguyen","contact_email":"jeannie@thecprhero.com","contact_phone":"714-705-6111","address":"23852 Hot Spring Canyon Rd","city":"San Juan Capistrano","state":"CA","zipcode":"92675","lat":"33.612480","lng":"-117.509544","notes":null,"tenant_id":9,"training_site_id":1,"status":1,"corporate_client_id":null,"location":"invalid corporate_client_id as corporate client not saved id=62 classbdb_cprher3829"}{"name":"Vizio LOC","contact_name":"Vince Pham","contact_email":"vince@thecprhero.com","contact_phone":"949-428-2525","address":"39 Tesla","city":"Irvine","state":"CA","zipcode":"92618","lat":"33.634048","lng":"-117.736557","notes":null,"tenant_id":9,"training_site_id":1,"status":1,"corporate_client_id":null,"location":"invalid corporate_client_id as corporate client not saved id=75 classbdb_cprher3829"}{"name":"St. Joseph Catholic School","contact_name":"Brad Snyder","contact_email":"stjoeprincipal@gmail.com","contact_phone":"714-953-5103","address":"608 Civic Center Dr E","city":"Santa Ana","state":"CA","zipcode":"92701","lat":"33.751904","lng":"-117.861755","notes":null,"tenant_id":9,"training_site_id":1,"status":1,"corporate_client_id":null,"location":"invalid corporate_client_id as corporate client not saved id=84 classbdb_cprher3829"}{"name":"Innovative Crane and Rigging Inc","contact_name":"Michael Ghost","contact_email":"ims1443@gmail.com","contact_phone":"909-786-7264","address":"1443 S Cucamonga Ave","city":"Ontario","state":"CA","zipcode":"91761","lat":"34.046890","lng":"-117.632904","notes":null,"tenant_id":7,"training_site_id":1,"status":1,"corporate_client_id":null,"location":"invalid corporate_client_id as corporate client not saved id=25 classbdb_cprher3829"}{"name":"Halecrest Swim and Tennis","contact_name":"Sharon Comer","contact_email":"halecrestpark@ca.rr.com","contact_phone":"714-557-7234","address":"Halecrest park Inc.","city":"Costa Mesa","state":"CA","zipcode":"92626","lat":"33.684307","lng":"-117.914162","notes":null,"tenant_id":7,"training_site_id":1,"status":1,"corporate_client_id":null,"location":"invalid corporate_client_id as corporate client not saved id=27 classbdb_cprher3829"}{"name":"Professional Security Consutlants","contact_name":"Travis Patterson","contact_email":"Tpatterson@pscsite.com","contact_phone":"562-544-3154","address":"1725 Pacific Ave","city":"Long Beach","state":"CA","zipcode":"90813","lat":"33.788471","lng":"-118.194138","notes":null,"tenant_id":7,"training_site_id":1,"status":1,"corporate_client_id":null,"location":"invalid corporate_client_id as corporate client not saved id=44 classbdb_cprher3829"}{"name":"CAPA LOC","contact_name":"Kimberly Dickerson","contact_email":"kim4capa@gmail.com","contact_phone":"714-427-0321","address":"2318 S Fairview St","city":"Santa Ana","state":"CA","zipcode":"92704","lat":"33.715927","lng":"-117.908020","notes":null,"tenant_id":7,"training_site_id":1,"status":1,"corporate_client_id":null,"location":"invalid corporate_client_id as corporate client not saved id=55 classbdb_cprher3829"}{"name":"Camp Med(LOC)","contact_name":"Jeannie Nguyen","contact_email":"jeannie@thecprhero.com","contact_phone":"714-705-6111","address":"23852 Hot Spring Canyon Rd","city":"San Juan Capistrano","state":"CA","zipcode":"92675","lat":"33.612480","lng":"-117.509544","notes":null,"tenant_id":7,"training_site_id":1,"status":1,"corporate_client_id":null,"location":"invalid corporate_client_id as corporate client not saved id=62 classbdb_cprher3829"}{"name":"Vizio LOC","contact_name":"Vince Pham","contact_email":"vince@thecprhero.com","contact_phone":"949-428-2525","address":"39 Tesla","city":"Irvine","state":"CA","zipcode":"92618","lat":"33.634048","lng":"-117.736557","notes":null,"tenant_id":7,"training_site_id":1,"status":1,"corporate_client_id":null,"location":"invalid corporate_client_id as corporate client not saved id=75 classbdb_cprher3829"}{"name":"St. Joseph Catholic School","contact_name":"Brad Snyder","contact_email":"stjoeprincipal@gmail.com","contact_phone":"714-953-5103","address":"608 Civic Center Dr E","city":"Santa Ana","state":"CA","zipcode":"92701","lat":"33.751904","lng":"-117.861755","notes":null,"tenant_id":7,"training_site_id":1,"status":1,"corporate_client_id":null,"location":"invalid corporate_client_id as corporate client not saved id=84 classbdb_cprher3829"}{"name":"Innovative Crane and Rigging Inc","contact_name":"Michael Ghost","contact_email":"ims1443@gmail.com","contact_phone":"909-786-7264","address":"1443 S Cucamonga Ave","city":"Ontario","state":"CA","zipcode":"91761","lat":"34.046890","lng":"-117.632904","notes":null,"tenant_id":7,"training_site_id":1,"status":1,"corporate_client_id":null,"location":"invalid corporate_client_id as corporate client not saved id=25 classbdb_cprher3829"}{"name":"Halecrest Swim and Tennis","contact_name":"Sharon Comer","contact_email":"halecrestpark@ca.rr.com","contact_phone":"714-557-7234","address":"Halecrest park Inc.","city":"Costa Mesa","state":"CA","zipcode":"92626","lat":"33.684307","lng":"-117.914162","notes":null,"tenant_id":7,"training_site_id":1,"status":1,"corporate_client_id":null,"location":"invalid corporate_client_id as corporate client not saved id=27 classbdb_cprher3829"}{"name":"Professional Security Consutlants","contact_name":"Travis Patterson","contact_email":"Tpatterson@pscsite.com","contact_phone":"562-544-3154","address":"1725 Pacific Ave","city":"Long Beach","state":"CA","zipcode":"90813","lat":"33.788471","lng":"-118.194138","notes":null,"tenant_id":7,"training_site_id":1,"status":1,"corporate_client_id":null,"location":"invalid corporate_client_id as corporate client not saved id=44 classbdb_cprher3829"}{"name":"CAPA LOC","contact_name":"Kimberly Dickerson","contact_email":"kim4capa@gmail.com","contact_phone":"714-427-0321","address":"2318 S Fairview St","city":"Santa Ana","state":"CA","zipcode":"92704","lat":"33.715927","lng":"-117.908020","notes":null,"tenant_id":7,"training_site_id":1,"status":1,"corporate_client_id":null,"location":"invalid corporate_client_id as corporate client not saved id=55 classbdb_cprher3829"}{"name":"Camp Med(LOC)","contact_name":"Jeannie Nguyen","contact_email":"jeannie@thecprhero.com","contact_phone":"714-705-6111","address":"23852 Hot Spring Canyon Rd","city":"San Juan Capistrano","state":"CA","zipcode":"92675","lat":"33.612480","lng":"-117.509544","notes":null,"tenant_id":7,"training_site_id":1,"status":1,"corporate_client_id":null,"location":"invalid corporate_client_id as corporate client not saved id=62 classbdb_cprher3829"}{"name":"Vizio LOC","contact_name":"Vince Pham","contact_email":"vince@thecprhero.com","contact_phone":"949-428-2525","address":"39 Tesla","city":"Irvine","state":"CA","zipcode":"92618","lat":"33.634048","lng":"-117.736557","notes":null,"tenant_id":7,"training_site_id":1,"status":1,"corporate_client_id":null,"location":"invalid corporate_client_id as corporate client not saved id=75 classbdb_cprher3829"}{"name":"St. Joseph Catholic School","contact_name":"Brad Snyder","contact_email":"stjoeprincipal@gmail.com","contact_phone":"714-953-5103","address":"608 Civic Center Dr E","city":"Santa Ana","state":"CA","zipcode":"92701","lat":"33.751904","lng":"-117.861755","notes":null,"tenant_id":7,"training_site_id":1,"status":1,"corporate_client_id":null,"location":"invalid corporate_client_id as corporate client not saved id=84 classbdb_cprher3829"}{"name":"DEA - Baltimore ","contact_name":"Bill Hopkins ","contact_email":"jrodriguez@rescue-one.com","contact_phone":"202-555-5555","address":"101 Baltimore Street","city":"Balitmore ","state":"MD","zipcode":"21230","lat":"39.289410","lng":"-76.613487","notes":null,"tenant_id":18,"training_site_id":1,"status":1,"corporate_client_id":null,"location":"invalid corporate_client_id as corporate client not saved id=2 classbdb_demo2016"}{"name":"CMS- Baltimore ","contact_name":"MARIO MONTE","contact_email":"MARIO.MONTE@ICLOUD.COM","contact_phone":"202-393-9697","address":"15982 SW 143RD LANE","city":"MIAMI","state":"FL","zipcode":"33196","lat":"25.632673","lng":"-80.453072","notes":null,"tenant_id":18,"training_site_id":1,"status":1,"corporate_client_id":null,"location":"invalid corporate_client_id as corporate client not saved id=2 classbdb_demo2016"}{"name":"O'Fallon Early Childhood Center LLC","contact_name":"Jeri Whyte","contact_email":"ofallonearlychildhoodcenter@yahoo.com","contact_phone":"636-272-0970","address":"220 Sonderen Street","city":"O'Fallon","state":"MO","zipcode":"63366","lat":"38.808567","lng":"-90.695160","notes":null,"tenant_id":20,"training_site_id":1,"status":1,"corporate_client_id":null,"location":"invalid corporate_client_id as corporate client not saved id=12 classbdb_ecpros"}